[
  {
    "position": {
      "lat": 36.851449,
      "lng": -76.290639
    },
    "title": "Freemason Street",
    "address": "161 Freemason St. ",
    "totalSpaces": 617,
    "availableSpaces": 576,
    "pricePerHr": 1.50,
    "maxDaily": 13.00
  },
  {
    "position": {
      "lat": 36.8505135,
      "lng": -76.2877571
    },
    "title": "Bank Street",
    "address": "441 Bank Street",
    "totalSpaces": 1372,
    "availableSpaces": 645,
    "pricePerHr": 1.50,
    "maxDaily": 13.00
  },
  {
    "position": {
      "lat": 36.84844,
      "lng": -76.292796
    },
    "title": "Boush Street",
    "address": "112 W. City Hall Ave.",
    "totalSpaces": 716,
    "availableSpaces": 357,
    "pricePerHr": 1.50,
    "maxDaily": 13.00
  },
  {
    "position": {
      "lat": 36.852011,
      "lng": -76.287895
    },
    "title": "Charlotte Street",
    "address": "440 Monticello Avenue",
    "totalSpaces": 482,
    "availableSpaces": 452,
    "pricePerHr": 1.50,
    "maxDaily": 13.00
  },
  {
    "position": {
      "lat": 36.844311,
      "lng": -76.283529
    },
    "title": "City Hall South",
    "address": "999 Main Street",
    "totalSpaces": 474,
    "availableSpaces": 298,
    "pricePerHr": 1.50,
    "maxDaily": 13.00
  },
  {
    "position": {
      "lat": 36.846475,
      "lng": -76.286747
    },
    "title": "Commercial Place",
    "address": "520 E Main Street",
    "totalSpaces": 240,
    "availableSpaces": 32,
    "pricePerHr": 1.50,
    "maxDaily": 13.00
  },
  {
    "position": {
      "lat": 36.849895,
      "lng": -76.287109
    },
    "title": "MacArthur Center North",
    "address": "500 City Hall Ave",
    "totalSpaces": 1672,
    "availableSpaces": 1243,
    "pricePerHr": 1.50,
    "maxDaily": 13.00
  },
  {
    "position": {
      "lat": 36.847787,
      "lng": -76.287753
    },
    "title": "MacArthur Center South",
    "address": "501 City Hall Ave",
    "totalSpaces": 2932,
    "availableSpaces": 1243,
    "pricePerHr": 1.50,
    "maxDaily": 13.00
  },
  {
    "position": {
      "lat": 36.846199,
      "lng": -76.290133
    },
    "title": "Main Street",
    "address": "230 East Main Street",
    "totalSpaces": 707,
    "availableSpaces": 687,
    "pricePerHr": 1.50,
    "maxDaily": 13.00
  },
  {
    "position": {
      "lat": 36.852402,
      "lng": -76.285731
    },
    "title": "Scope",
    "address": "201 E. Brambleton",
    "totalSpaces": 600,
    "availableSpaces": 332,
    "pricePerHr": 1.50,
    "maxDaily": 13.00
  },
  {
    "position": {
      "lat": 36.846577,
      "lng": -76.292889
    },
    "title": "Town Point",
    "address": "110 West Main Street",
    "totalSpaces": 880,
    "availableSpaces": 841,
    "pricePerHr": 1.50,
    "maxDaily": 13.00
  },
  {
    "position": {
      "lat": 36.84522,
      "lng": -76.290362
    },
    "title": "Waterside",
    "address": "50 Martin's Lane",
    "totalSpaces": 561,
    "availableSpaces": 125,
    "pricePerHr": 1.50,
    "maxDaily": 13.00
  },
  {
    "position": {
      "lat": 36.847541,
      "lng": -76.292962
    },
    "title": "West Plume",
    "address": "100 West Plume Street",
    "totalSpaces": 835,
    "availableSpaces": 121,
    "pricePerHr": 1.50,
    "maxDaily": 13.00
  },
  {
    "position": {
      "lat": 36.853045,
      "lng": -76.291265
    },
    "title": "York Street",
    "address": "215 W. York Street",
    "totalSpaces": 593,
    "availableSpaces": 412,
    "pricePerHr": 1.50,
    "maxDaily": 13.00
  },
  {
    "position": {
      "lat": 36.830458,
      "lng": -75.970249
    },
    "title": "2nd Street Municipal Lot",
    "address": "145 Atlantic Ave",
    "totalSpaces": 912,
    "availableSpaces": 150,
    "pricePerHr": 1.75,
    "maxDaily": 10.00
  },
  {
    "position": {
      "lat": 36.830519,
      "lng": -75.970847
    },
    "title": "Rudee Loop Lot",
    "address": "104 Atlantic Ave",
    "totalSpaces": 532,
    "availableSpaces": 412,
    "pricePerHr": 2.00,
    "maxDaily": 10.00
  },
  {
    "position": {
      "lat": 36.832747,
      "lng": -75.972466
    },
    "title": "4th Street Lot",
    "address": "306 4th St",
    "totalSpaces": 1124,
    "availableSpaces": 450,
    "pricePerHr": 2.25,
    "maxDaily": 10.00
  },
  {
    "position": {
      "lat": 36.847855,
      "lng": -75.977393
    },
    "title": "19th Street North",
    "address": "340 20th St",
    "totalSpaces": 842,
    "availableSpaces": 700,
    "pricePerHr": 2.00,
    "maxDaily": 10.00
  },
  {
    "position": {
      "lat": 36.846700,
      "lng": -75.975754
    },
    "title": "19th Street South",
    "address": "1816 Pacific Ave",
    "totalSpaces": 1607,
    "availableSpaces": 50,
    "pricePerHr": 2.00,
    "maxDaily": 10.00
  },
  {
    "position": {
      "lat": 36.818509,
      "lng": -75.968729
    },
    "title": "Croatan Lot",
    "address": "920 Vanderbilt Avenue", 
    "totalSpaces": 367,
    "availableSpaces": 300,
    "pricePerHr": 1.75,
    "maxDaily": 7.00
  },
  {
    "position": {
      "lat": 36.837645,
      "lng": -75.972178
    },
    "title": "9th Street Garage",
    "address": "-75.972178",
    "totalSpaces": 956,
    "availableSpaces": 650,
    "pricePerHr": 2.00,
    "maxDaily": 10.00
  },
  {
    "position": {
      "lat": 36.842636,
      "lng": -76.134040
    },
    "title": "Town Center parking garage",
    "address": "222 Central Park Ave",
    "totalSpaces": 1321,
    "availableSpaces": 350,
    "pricePerHr": 0.00,
    "maxDaily": 0.00
  },
  {
    "position": {
      "lat": 36.858350,
      "lng": -75.978004
    },
    "title": "31st Street",
    "address": "209 30th St",
    "totalSpaces": 1835,
    "availableSpaces": 850,
    "pricePerHr": 2.00,
    "maxDaily": 10.00
  }
]
